{
  "type": "FeatureCollection",
  "features": [
    {
      "type": "Feature",
      "properties": {
        "stopName": "East Bricktown",
        "stopId": 1
      },
      "geometry": {
        "type": "Point",
        "coordinates": [
          -97.5061054,
          35.4651881
        ]
      }
    },
    {
      "type": "Feature",
      "properties": {
        "stopName": "Ballpark",
        "stopId": 2
      },
      "geometry": {
        "type": "Point",
        "coordinates": [
          -97.5086556,
          35.4642933
        ]
      }
    },
    {
      "type": "Feature",
      "properties": {
        "stopName": "Santa Fe Hub",
        "stopId": 3
      },
      "geometry": {
        "type": "Point",
        "coordinates": [
          -97.5116748,
          35.4642861
        ]
      }
    },
    {
      "type": "Feature",
      "properties": {
        "stopName": "Arena",
        "stopId": 4
      },
      "geometry": {
        "type": "Point",
        "coordinates": [
          -97.5146145,
          35.4643242
        ]
      }
    },
    {
      "type": "Feature",
      "properties": {
        "stopName": "Scissortail Park",
        "stopId": 5
      },
      "geometry": {
        "type": "Point",
        "coordinates": [
          -97.5174235,
          35.462533
        ]
      }
    },
    {
      "type": "Feature",
      "properties": {
        "stopName": "Myriad Gardens",
        "stopId": 6
      },
      "geometry": {
        "type": "Point",
        "coordinates": [
          -97.5194595,
          35.4659933
        ]
      }
    },
    {
      "type": "Feature",
      "properties": {
        "stopName": "Library",
        "stopId": 7
      },
      "geometry": {
        "type": "Point",
        "coordinates": [
          -97.519436,
          35.4684786
        ]
      }
    },
    {
      "type": "Feature",
      "properties": {
        "stopName": "Transit Center",
        "stopId": 8
      },
      "geometry": {
        "type": "Point",
        "coordinates": [
          -97.5193718,
          35.4717115
        ]
      }
    },
    {
      "type": "Feature",
      "properties": {
        "stopName": "Federal Courthouse",
        "stopId": 9
      },
      "geometry": {
        "type": "Point",
        "coordinates": [
          -97.5147592,
          35.4718526
        ]
      }
    },
    {
      "type": "Feature",
      "properties": {
        "stopName": "Broadway Avenue",
        "stopId": 10
      },
      "geometry": {
        "type": "Point",
        "coordinates": [
          -97.5142626,
          35.4727804
        ]
      }
    },
    {
      "type": "Feature",
      "properties": {
        "stopName": "Automobile Alley",
        "stopId": 11
      },
      "geometry": {
        "type": "Point",
        "coordinates": [
          -97.5141708,
          35.4755509
        ]
      }
    },
    {
      "type": "Feature",
      "properties": {
        "stopName": "Art Park",
        "stopId": 12
      },
      "geometry": {
        "type": "Point",
        "coordinates": [
          -97.5139675,
          35.4797627
        ]
      }
    },
    {
      "type": "Feature",
      "properties": {
        "stopName": "North Hudson",
        "stopId": 13
      },
      "geometry": {
        "type": "Point",
        "coordinates": [
          -97.5184252,
          35.480061
        ]
      }
    },
    {
      "type": "Feature",
      "properties": {
        "stopName": "Dewey Avenue",
        "stopId": 14
      },
      "geometry": {
        "type": "Point",
        "coordinates": [
          -97.5227026,
          35.4794281
        ]
      }
    },
    {
      "type": "Feature",
      "properties": {
        "stopName": "Midtown",
        "stopId": 15
      },
      "geometry": {
        "type": "Point",
        "coordinates": [
          -97.51949,
          35.4782112
        ]
      }
    },
    {
      "type": "Feature",
      "properties": {
        "stopName": "NW 10th Street",
        "stopId": 16
      },
      "geometry": {
        "type": "Point",
        "coordinates": [
          -97.5164615,
          35.4781452
        ]
      }
    },
    {
      "type": "Feature",
      "properties": {
        "stopName": "Law School",
        "stopId": 17
      },
      "geometry": {
        "type": "Point",
        "coordinates": [
          -97.5162528,
          35.475241
        ]
      }
    },
    {
      "type": "Feature",
      "properties": {
        "stopName": "Memorial Museum",
        "stopId": 18
      },
      "geometry": {
        "type": "Point",
        "coordinates": [
          -97.516348,
          35.4724722
        ]
      }
    },
    {
      "type": "Feature",
      "properties": {
        "stopName": "Business District",
        "stopId": 19
      },
      "geometry": {
        "type": "Point",
        "coordinates": [
          -97.5164677,
          35.4692376
        ]
      }
    },
    {
      "type": "Feature",
      "properties": {
        "stopName": "Century Center",
        "stopId": 20
      },
      "geometry": {
        "type": "Point",
        "coordinates": [
          -97.5148481,
          35.466394
        ]
      }
    },
    {
      "type": "Feature",
      "properties": {
        "stopName": "Bricktown",
        "stopId": 21
      },
      "geometry": {
        "type": "Point",
        "coordinates": [
          -97.5110911,
          35.4664112
        ]
      }
    },
    {
      "type": "Feature",
      "properties": {
        "stopName": "Mickey Mantle",
        "stopId": 22
      },
      "geometry": {
        "type": "Point",
        "coordinates": [
          -97.5092885,
          35.4663935
        ]
      }
    },
    {
      "type": "Feature",
      "properties": {
        "routeName": "Downtown",
        "routeId": 1
      },
      "geometry": {
        "type": "LineString",
        "coordinates": [
          [
            -97.5061054,
            35.4651881
          ],
          [
            -97.5061054,
            35.4642933
          ],
          [
            -97.5086556,
            35.4642933
          ],
          [
            -97.5116748,
            35.4642861
          ],
          [
            -97.5146145,
            35.4643242
          ],
          [
            -97.5163221359253,
            35.4643242
          ],
          [
            -97.51627922058105,
            35.46261867729541
          ],
          [
            -97.5174235,
            35.462533
          ],
          [
            -97.51951932907104,
            35.46260993872005
          ],
          [
            -97.5194595,
            35.4659933
          ],
          [
            -97.519436,
            35.4684786
          ],
          [
            -97.5193718,
            35.4717115
          ],
          [
            -97.51940131187439,
            35.472012096708376
          ],
          [
            -97.5147592,
            35.4718526
          ],
          [
            -97.51436948776245,
            35.47188977085577
          ],
          [
            -97.5142626,
            35.4727804
          ],
          [
            -97.5141708,
            35.4755509
          ],
          [
            -97.5139675,
            35.4797627
          ],
          [
            -97.51396179199219,
            35.4801900315688
          ],
          [
            -97.51604318618774,
            35.480207504897926
          ],
          [
            -97.51604318618774,
            35.480024034752574
          ],
          [
            -97.5184252,
            35.480061
          ],
          [
            -97.52267897129057,
            35.48002840309423
          ],
          [
            -97.5227026,
            35.4794281
          ],
          [
            -97.52269506454468,
            35.478792152931796
          ],
          [
            -97.52141833305359,
            35.478787784522964
          ],
          [
            -97.52108573913574,
            35.478691679468405
          ],
          [
            -97.52046346664427,
            35.47824609998694
          ],
          [
            -97.51949,
            35.4782112
          ],
          [
            -97.5164615,
            35.4781452
          ],
          [
            -97.5162528,
            35.4781452
          ],
          [
            -97.5162528,
            35.475241
          ],
          [
            -97.516348,
            35.4724722
          ],
          [
            -97.5164677,
            35.4692376
          ],
          [
            -97.5165045261383,
            35.466402391214544
          ],
          [
            -97.5148481,
            35.466394
          ],
          [
            -97.5110911,
            35.4664112
          ],
          [
            -97.5092885,
            35.4663935
          ],
          [
            -97.50601172447205,
            35.466432974781966
          ],
          [
            -97.5061054,
            35.4651881
          ]
        ]
      }
    },
    {
      "type": "Feature",
      "properties": {
        "routeName": "Bricktown",
        "routeId": 5
      },
      "geometry": {
        "type": "LineString",
        "coordinates": [
          [
            -97.5061054,
            35.4651881
          ],
          [
            -97.5061054,
            35.4642933
          ],
          [
            -97.5086556,
            35.4642933
          ],
          [
            -97.5116748,
            35.4642861
          ],
          [
            -97.5146145,
            35.4643242
          ],
          [
            -97.5163221359253,
            35.4643242
          ],
          [
            -97.51627922058105,
            35.46261867729541
          ],
          [
            -97.5174235,
            35.462533
          ],
          [
            -97.51951932907104,
            35.46260993872005
          ],
          [
            -97.5194595,
            35.4659933
          ],
          [
            -97.5194595,
            35.466394
          ],
          [
            -97.5148481,
            35.466394
          ],
          [
            -97.5110911,
            35.4664112
          ],
          [
            -97.5092885,
            35.4663935
          ],
          [
            -97.50601172447205,
            35.466432974781966
          ],
          [
            -97.5061054,
            35.4651881
          ]
        ]
      }
    }
  ]
}
